[
  {
    "id": "culpeper_cxone",
    "name": "Culpeper, VA",
    "city": "Culpeper",
    "state": "Virginia",
    "country": "United States",
    "region": "North America",
    "platform": "CXone Software",
    "type": "cxone",
    "lat": 38.47,
    "lng": -77.99,
    "icon": "circle",
    "label": "",
    "labelOn": false
  },
  {
    "id": "culpeper_cognigy",
    "name": "Culpeper, VA",
    "city": "Culpeper",
    "state": "Virginia",
    "country": "United States",
    "region": "North America",
    "platform": "Cognigy AI",
    "type": "cxone",
    "lat": 38.47,
    "lng": -77.99,
    "icon": "circle",
    "label": "",
    "labelOn": false
  },
  {
    "id": "oregon_cxone",
    "name": "Oregon",
    "city": "Portland",
    "state": "Oregon",
    "country": "United States",
    "region": "North America",
    "platform": "CXone Software",
    "type": "cxone",
    "lat": 44.0,
    "lng": -120.5,
    "icon": "circle",
    "label": "",
    "labelOn": false
  },
  {
    "id": "oregon_cognigy",
    "name": "Oregon",
    "city": "Portland",
    "state": "Oregon",
    "country": "United States",
    "region": "North America",
    "platform": "Cognigy AI",
    "type": "cxone",
    "lat": 44.0,
    "lng": -120.5,
    "icon": "circle",
    "label": "",
    "labelOn": false
  },
  {
    "id": "la_voicepop",
    "name": "Los Angeles",
    "city": "Los Angeles",
    "state": "California",
    "country": "United States",
    "region": "North America",
    "platform": "Voice POP",
    "type": "voice",
    "lat": 34.05,
    "lng": -118.24,
    "icon": "circle",
    "label": "",
    "labelOn": false
  },
  {
    "id": "la_pstn",
    "name": "Los Angeles",
    "city": "Los Angeles",
    "state": "California",
    "country": "United States",
    "region": "North America",
    "platform": "PSTN Carrier",
    "type": "voice",
    "lat": 34.05,
    "lng": -118.24,
    "icon": "circle",
    "label": "",
    "labelOn": false
  },
  {
    "id": "miami_voicepop",
    "name": "Miami",
    "city": "Miami",
    "state": "Florida",
    "country": "United States",
    "region": "North America",
    "platform": "Voice POP",
    "type": "voice",
    "lat": 25.77,
    "lng": -80.19,
    "icon": "circle",
    "label": "",
    "labelOn": false
  },
  {
    "id": "miami_pstn",
    "name": "Miami",
    "city": "Miami",
    "state": "Florida",
    "country": "United States",
    "region": "North America",
    "platform": "PSTN Carrier",
    "type": "voice",
    "lat": 25.77,
    "lng": -80.19,
    "icon": "circle",
    "label": "",
    "labelOn": false
  },
  {
    "id": "dallas_sov",
    "name": "Dallas",
    "city": "Dallas",
    "state": "Texas",
    "country": "United States",
    "region": "North America",
    "platform": "FedRamp Region",
    "type": "sov",
    "lat": 32.78,
    "lng": -96.8,
    "icon": "circle",
    "label": "",
    "labelOn": false
  },
  {
    "id": "dallas_pstn",
    "name": "Dallas",
    "city": "Dallas",
    "state": "Texas",
    "country": "United States",
    "region": "North America",
    "platform": "PSTN Carrier",
    "type": "sov",
    "lat": 32.78,
    "lng": -96.8,
    "icon": "circle",
    "label": "",
    "labelOn": false
  },
  {
    "id": "toronto_voicepop",
    "name": "Toronto",
    "city": "Toronto",
    "state": "",
    "country": "Canada",
    "region": "North America",
    "platform": "Voice POP",
    "type": "voice",
    "lat": 43.65,
    "lng": -79.38,
    "icon": "circle",
    "label": "",
    "labelOn": false
  },
  {
    "id": "toronto_pstn",
    "name": "Toronto",
    "city": "Toronto",
    "state": "",
    "country": "Canada",
    "region": "North America",
    "platform": "PSTN Carrier",
    "type": "voice",
    "lat": 43.65,
    "lng": -79.38,
    "icon": "circle",
    "label": "",
    "labelOn": false
  },
  {
    "id": "montreal_voicepop",
    "name": "Montreal",
    "city": "Montreal",
    "state": "",
    "country": "Canada",
    "region": "North America",
    "platform": "Voice POP",
    "type": "voice",
    "lat": 45.5,
    "lng": -73.57,
    "icon": "circle",
    "label": "",
    "labelOn": false
  },
  {
    "id": "london_cxone",
    "name": "London",
    "city": "London",
    "state": "",
    "country": "United Kingdom",
    "region": "EMEA",
    "platform": "CXone Software",
    "type": "cxone",
    "lat": 51.51,
    "lng": -0.13,
    "icon": "circle",
    "label": "",
    "labelOn": false
  },
  {
    "id": "london_cognigy",
    "name": "London",
    "city": "London",
    "state": "",
    "country": "United Kingdom",
    "region": "EMEA",
    "platform": "Cognigy AI",
    "type": "cxone",
    "lat": 51.51,
    "lng": -0.13,
    "icon": "circle",
    "label": "",
    "labelOn": false
  },
  {
    "id": "london_pstn",
    "name": "London",
    "city": "London",
    "state": "",
    "country": "United Kingdom",
    "region": "EMEA",
    "platform": "PSTN Carrier",
    "type": "cxone",
    "lat": 51.51,
    "lng": -0.13,
    "icon": "circle",
    "label": "",
    "labelOn": false
  },
  {
    "id": "manchester_cxone",
    "name": "Manchester",
    "city": "Manchester",
    "state": "",
    "country": "United Kingdom",
    "region": "EMEA",
    "platform": "CXone Software",
    "type": "cxone",
    "lat": 53.48,
    "lng": -2.24,
    "icon": "circle",
    "label": "",
    "labelOn": false
  },
  {
    "id": "manchester_cognigy",
    "name": "Manchester",
    "city": "Manchester",
    "state": "",
    "country": "United Kingdom",
    "region": "EMEA",
    "platform": "Cognigy AI",
    "type": "cxone",
    "lat": 53.48,
    "lng": -2.24,
    "icon": "circle",
    "label": "",
    "labelOn": false
  },
  {
    "id": "manchester_pstn",
    "name": "Manchester",
    "city": "Manchester",
    "state": "",
    "country": "United Kingdom",
    "region": "EMEA",
    "platform": "PSTN Carrier",
    "type": "cxone",
    "lat": 53.48,
    "lng": -2.24,
    "icon": "circle",
    "label": "",
    "labelOn": false
  },
  {
    "id": "frankfurt_cxone",
    "name": "Frankfurt",
    "city": "Frankfurt",
    "state": "",
    "country": "Germany",
    "region": "EMEA",
    "platform": "CXone Software",
    "type": "cxone",
    "lat": 50.11,
    "lng": 8.68,
    "icon": "circle",
    "label": "",
    "labelOn": false
  },
  {
    "id": "frankfurt_cognigy",
    "name": "Frankfurt",
    "city": "Frankfurt",
    "state": "",
    "country": "Germany",
    "region": "EMEA",
    "platform": "Cognigy AI",
    "type": "cxone",
    "lat": 50.11,
    "lng": 8.68,
    "icon": "circle",
    "label": "",
    "labelOn": false
  },
  {
    "id": "munich_voicepop",
    "name": "Munich",
    "city": "Munich",
    "state": "",
    "country": "Germany",
    "region": "EMEA",
    "platform": "Voice POP",
    "type": "voice",
    "lat": 48.14,
    "lng": 11.58,
    "icon": "circle",
    "label": "",
    "labelOn": false
  },
  {
    "id": "dubai_cxone",
    "name": "Dubai",
    "city": "Dubai",
    "state": "",
    "country": "UAE",
    "region": "MEA",
    "platform": "CXone Software",
    "type": "cxone",
    "lat": 25.2,
    "lng": 55.27,
    "icon": "circle",
    "label": "",
    "labelOn": false
  },
  {
    "id": "dubai_cognigy",
    "name": "Dubai",
    "city": "Dubai",
    "state": "",
    "country": "UAE",
    "region": "MEA",
    "platform": "Cognigy AI",
    "type": "cxone",
    "lat": 25.2,
    "lng": 55.27,
    "icon": "circle",
    "label": "",
    "labelOn": false
  },
  {
    "id": "dubai_pstn",
    "name": "Dubai",
    "city": "Dubai",
    "state": "",
    "country": "UAE",
    "region": "MEA",
    "platform": "PSTN Carrier",
    "type": "cxone",
    "lat": 25.2,
    "lng": 55.27,
    "icon": "circle",
    "label": "",
    "labelOn": false
  },
  {
    "id": "abudhabi_cxone",
    "name": "Abu Dhabi",
    "city": "Abu Dhabi",
    "state": "",
    "country": "UAE",
    "region": "MEA",
    "platform": "CXone Software",
    "type": "cxone",
    "lat": 24.47,
    "lng": 54.37,
    "icon": "circle",
    "label": "",
    "labelOn": false
  },
  {
    "id": "abudhabi_cognigy",
    "name": "Abu Dhabi",
    "city": "Abu Dhabi",
    "state": "",
    "country": "UAE",
    "region": "MEA",
    "platform": "Cognigy AI",
    "type": "cxone",
    "lat": 24.47,
    "lng": 54.37,
    "icon": "circle",
    "label": "",
    "labelOn": false
  },
  {
    "id": "abudhabi_pstn",
    "name": "Abu Dhabi",
    "city": "Abu Dhabi",
    "state": "",
    "country": "UAE",
    "region": "MEA",
    "platform": "PSTN Carrier",
    "type": "cxone",
    "lat": 24.47,
    "lng": 54.37,
    "icon": "circle",
    "label": "",
    "labelOn": false
  },
  {
    "id": "mumbai_voicepop",
    "name": "Mumbai",
    "city": "Mumbai",
    "state": "",
    "country": "India",
    "region": "APAC",
    "platform": "Voice POP",
    "type": "voice",
    "lat": 19.08,
    "lng": 72.88,
    "icon": "circle",
    "label": "",
    "labelOn": false
  },
  {
    "id": "mumbai_pstn",
    "name": "Mumbai",
    "city": "Mumbai",
    "state": "",
    "country": "India",
    "region": "APAC",
    "platform": "PSTN Carrier",
    "type": "voice",
    "lat": 19.08,
    "lng": 72.88,
    "icon": "circle",
    "label": "",
    "labelOn": false
  },
  {
    "id": "hyderabad_voicepop",
    "name": "Hyderabad",
    "city": "Hyderabad",
    "state": "",
    "country": "India",
    "region": "APAC",
    "platform": "Voice POP",
    "type": "voice",
    "lat": 17.38,
    "lng": 78.49,
    "icon": "circle",
    "label": "",
    "labelOn": false
  },
  {
    "id": "hyderabad_pstn",
    "name": "Hyderabad",
    "city": "Hyderabad",
    "state": "",
    "country": "India",
    "region": "APAC",
    "platform": "PSTN Carrier",
    "type": "voice",
    "lat": 17.38,
    "lng": 78.49,
    "icon": "circle",
    "label": "",
    "labelOn": false
  },
  {
    "id": "singapore_cxone",
    "name": "Singapore",
    "city": "Singapore",
    "state": "",
    "country": "Singapore",
    "region": "APAC",
    "platform": "CXone Software",
    "type": "cxone",
    "lat": 1.35,
    "lng": 103.82,
    "icon": "circle",
    "label": "",
    "labelOn": false
  },
  {
    "id": "singapore_cognigy",
    "name": "Singapore",
    "city": "Singapore",
    "state": "",
    "country": "Singapore",
    "region": "APAC",
    "platform": "Cognigy AI",
    "type": "cxone",
    "lat": 1.35,
    "lng": 103.82,
    "icon": "circle",
    "label": "",
    "labelOn": false
  },
  {
    "id": "singapore_pstn",
    "name": "Singapore",
    "city": "Singapore",
    "state": "",
    "country": "Singapore",
    "region": "APAC",
    "platform": "PSTN Carrier",
    "type": "cxone",
    "lat": 1.35,
    "lng": 103.82,
    "icon": "circle",
    "label": "",
    "labelOn": false
  },
  {
    "id": "tokyo_cxone",
    "name": "Tokyo",
    "city": "Tokyo",
    "state": "",
    "country": "Japan",
    "region": "APAC",
    "platform": "CXone Software",
    "type": "cxone",
    "lat": 35.69,
    "lng": 139.69,
    "icon": "circle",
    "label": "",
    "labelOn": false
  },
  {
    "id": "tokyo_cognigy",
    "name": "Tokyo",
    "city": "Tokyo",
    "state": "",
    "country": "Japan",
    "region": "APAC",
    "platform": "Cognigy AI",
    "type": "cxone",
    "lat": 35.69,
    "lng": 139.69,
    "icon": "circle",
    "label": "",
    "labelOn": false
  },
  {
    "id": "tokyo_pstn",
    "name": "Tokyo",
    "city": "Tokyo",
    "state": "",
    "country": "Japan",
    "region": "APAC",
    "platform": "PSTN Carrier",
    "type": "cxone",
    "lat": 35.69,
    "lng": 139.69,
    "icon": "circle",
    "label": "",
    "labelOn": false
  },
  {
    "id": "osaka_cxone",
    "name": "Osaka",
    "city": "Osaka",
    "state": "",
    "country": "Japan",
    "region": "APAC",
    "platform": "CXone Software",
    "type": "cxone",
    "lat": 34.69,
    "lng": 135.5,
    "icon": "circle",
    "label": "",
    "labelOn": false
  },
  {
    "id": "osaka_cognigy",
    "name": "Osaka",
    "city": "Osaka",
    "state": "",
    "country": "Japan",
    "region": "APAC",
    "platform": "Cognigy AI",
    "type": "cxone",
    "lat": 34.69,
    "lng": 135.5,
    "icon": "circle",
    "label": "",
    "labelOn": false
  },
  {
    "id": "osaka_pstn",
    "name": "Osaka",
    "city": "Osaka",
    "state": "",
    "country": "Japan",
    "region": "APAC",
    "platform": "PSTN Carrier",
    "type": "cxone",
    "lat": 34.69,
    "lng": 135.5,
    "icon": "circle",
    "label": "",
    "labelOn": false
  },
  {
    "id": "seoul_voicepop",
    "name": "Seoul",
    "city": "Seoul",
    "state": "",
    "country": "South Korea",
    "region": "APAC",
    "platform": "Voice POP",
    "type": "voice",
    "lat": 37.57,
    "lng": 126.98,
    "icon": "circle",
    "label": "",
    "labelOn": false
  },
  {
    "id": "seoul_pstn",
    "name": "Seoul",
    "city": "Seoul",
    "state": "",
    "country": "South Korea",
    "region": "APAC",
    "platform": "PSTN Carrier",
    "type": "voice",
    "lat": 37.57,
    "lng": 126.98,
    "icon": "circle",
    "label": "",
    "labelOn": false
  },
  {
    "id": "sydney_cxone",
    "name": "Sydney",
    "city": "Sydney",
    "state": "",
    "country": "Australia",
    "region": "APAC",
    "platform": "CXone Software",
    "type": "cxone",
    "lat": -33.87,
    "lng": 151.21,
    "icon": "circle",
    "label": "",
    "labelOn": false
  },
  {
    "id": "sydney_cognigy",
    "name": "Sydney",
    "city": "Sydney",
    "state": "",
    "country": "Australia",
    "region": "APAC",
    "platform": "Cognigy AI",
    "type": "cxone",
    "lat": -33.87,
    "lng": 151.21,
    "icon": "circle",
    "label": "",
    "labelOn": false
  },
  {
    "id": "sydney_pstn",
    "name": "Sydney",
    "city": "Sydney",
    "state": "",
    "country": "Australia",
    "region": "APAC",
    "platform": "PSTN Carrier",
    "type": "cxone",
    "lat": -33.87,
    "lng": 151.21,
    "icon": "circle",
    "label": "",
    "labelOn": false
  },
  {
    "id": "melbourne_voicepop",
    "name": "Melbourne",
    "city": "Melbourne",
    "state": "",
    "country": "Australia",
    "region": "APAC",
    "platform": "Voice POP",
    "type": "voice",
    "lat": -37.81,
    "lng": 144.96,
    "icon": "circle",
    "label": "",
    "labelOn": false
  },
  {
    "id": "saopaulo_sov",
    "name": "Sao Paulo",
    "city": "Sao Paulo",
    "state": "",
    "country": "Brazil",
    "region": "LATAM",
    "platform": "SOV Region",
    "type": "sov",
    "lat": -23.55,
    "lng": -46.63,
    "icon": "circle",
    "label": "",
    "labelOn": false
  },
  {
    "id": "saopaulo_voicepop",
    "name": "Sao Paulo",
    "city": "Sao Paulo",
    "state": "",
    "country": "Brazil",
    "region": "LATAM",
    "platform": "Voice POP",
    "type": "sov",
    "lat": -23.55,
    "lng": -46.63,
    "icon": "circle",
    "label": "",
    "labelOn": false
  },
  {
    "id": "saopaulo_pstn",
    "name": "Sao Paulo",
    "city": "Sao Paulo",
    "state": "",
    "country": "Brazil",
    "region": "LATAM",
    "platform": "PSTN Carrier",
    "type": "sov",
    "lat": -23.55,
    "lng": -46.63,
    "icon": "circle",
    "label": "",
    "labelOn": false
  },
  {
    "id": "rio_sov",
    "name": "Rio de Janeiro",
    "city": "Rio de Janeiro",
    "state": "",
    "country": "Brazil",
    "region": "LATAM",
    "platform": "SOV Region",
    "type": "sov",
    "lat": -22.91,
    "lng": -43.17,
    "icon": "circle",
    "label": "",
    "labelOn": false
  },
  {
    "id": "rio_voicepop",
    "name": "Rio de Janeiro",
    "city": "Rio de Janeiro",
    "state": "",
    "country": "Brazil",
    "region": "LATAM",
    "platform": "Voice POP",
    "type": "sov",
    "lat": -22.91,
    "lng": -43.17,
    "icon": "circle",
    "label": "",
    "labelOn": false
  },
  {
    "id": "capetown_sov",
    "name": "Cape Town",
    "city": "Cape Town",
    "state": "",
    "country": "South Africa",
    "region": "MEA",
    "platform": "SOV Region",
    "type": "sov",
    "lat": -33.93,
    "lng": 18.42,
    "icon": "circle",
    "label": "",
    "labelOn": false
  },
  {
    "id": "capetown_voicepop",
    "name": "Cape Town",
    "city": "Cape Town",
    "state": "",
    "country": "South Africa",
    "region": "MEA",
    "platform": "Voice POP",
    "type": "sov",
    "lat": -33.93,
    "lng": 18.42,
    "icon": "circle",
    "label": "",
    "labelOn": false
  },
  {
    "id": "capetown_pstn",
    "name": "Cape Town",
    "city": "Cape Town",
    "state": "",
    "country": "South Africa",
    "region": "MEA",
    "platform": "PSTN Carrier",
    "type": "sov",
    "lat": -33.93,
    "lng": 18.42,
    "icon": "circle",
    "label": "",
    "labelOn": false
  },
  {
    "id": "johannesburg_sov",
    "name": "Johannesburg",
    "city": "Johannesburg",
    "state": "",
    "country": "South Africa",
    "region": "MEA",
    "platform": "SOV Region",
    "type": "sov",
    "lat": -26.2,
    "lng": 28.04,
    "icon": "circle",
    "label": "",
    "labelOn": false
  },
  {
    "id": "johannesburg_voicepop",
    "name": "Johannesburg",
    "city": "Johannesburg",
    "state": "",
    "country": "South Africa",
    "region": "MEA",
    "platform": "Voice POP",
    "type": "sov",
    "lat": -26.2,
    "lng": 28.04,
    "icon": "circle",
    "label": "",
    "labelOn": false
  },
  {
    "id": "johannesburg_pstn",
    "name": "Johannesburg",
    "city": "Johannesburg",
    "state": "",
    "country": "South Africa",
    "region": "MEA",
    "platform": "PSTN Carrier",
    "type": "sov",
    "lat": -26.2,
    "lng": 28.04,
    "icon": "circle",
    "label": "",
    "labelOn": false
  }
]